[
  {"id":"jpn","name_ja":"日本語","family":"日本語族","branch":"日本語","subgroup":"日本語","countries":["JP"],"total_speakers":125000000,"center":{"lat":35.68,"lng":139.76},"audio":{"text":"こんにちは、今日はいい天気ですね。どこかお出かけですか？","source":"音声合成"},"dialects":[{"id":"standard","name":"標準語","region":"関東地方","sample_text":"こんにちは、今日はいい天気ですね。どこかお出かけですか？","description":"東京を中心とした標準的な日本語","conversion_model":"standard","custom_input_enabled":true,"detailed_info":{"history":"明治時代以降、東京の山の手言葉を基に全国に普及した標準語","characteristics":["平板アクセント","丁寧語の多用","外来語の受容"],"unique_words":["です・ます調","お疲れ様","お疲れ様でした"],"pronunciation_notes":"アクセントは比較的平坦で、関西弁のような高低差が少ない","cultural_context":"学校教育や放送で使用される正式な日本語","sample_phrases":["こんにちは","ありがとうございます","失礼いたします"]}},{"id":"tokyo","name":"東京弁","region":"関東地方","sample_text":"こんにちは、今日はいい天気ですね。どこかお出かけですか？","description":"東京の方言","conversion_model":"tokyo","custom_input_enabled":true},{"id":"osaka","name":"大阪弁","region":"関西地方","sample_text":"こんにちは、今日はええ天気やなあ。どっか行かはるんですか？","description":"大阪を中心とした関西地方の方言","conversion_model":"osaka","custom_input_enabled":true,"detailed_info":{"history":"江戸時代から続く商業都市大阪の方言で、商人の言葉として発達","characteristics":["高低アクセント","関西弁特有の語尾","親しみやすい口調"],"unique_words":["ええ","やなあ","どっか","はる","なんでやねん"],"pronunciation_notes":"「え」の発音が特徴的で、語尾に「や」「で」を多用","cultural_context":"商売の街として発達したため、親しみやすく商売向きの表現が多い","sample_phrases":["ええ天気やなあ","どっか行くん？","なんでやねん","めっちゃええやん"]}},{"id":"kyoto","name":"京都弁","region":"関西地方","sample_text":"こんにちは、今日はええ天気やなあ。どっか行かはるんですか？","description":"京都の伝統的な方言","conversion_model":"kyoto","custom_input_enabled":true},{"id":"kansai","name":"関西弁","region":"関西地方","sample_text":"こんにちは、今日はええ天気やなあ。どっか行かはるんですか？","description":"大阪・京都を中心とした関西地方の方言","conversion_model":"kansai","custom_input_enabled":true},{"id":"hakata","name":"博多弁","region":"福岡県","sample_text":"こんにちは、今日はよか天気ばい。どっか行くん？","description":"福岡県の方言","conversion_model":"hakata","custom_input_enabled":true,"detailed_info":{"history":"福岡・博多の商人町で発達した方言で、九州の代表的な方言","characteristics":["「ばい」語尾","「と」の多用","親しみやすい口調"],"unique_words":["ばい","と","よか","どっか","なんしよっと"],"pronunciation_notes":"語尾に「ばい」「と」を多用し、親しみやすい響き","cultural_context":"商人の街として発達し、親しみやすく商売向きの表現","sample_phrases":["よか天気ばい","どっか行くん？","なんしよっと","めっちゃよかと"]}},{"id":"tsugaru","name":"津軽弁","region":"青森県","sample_text":"こんにちは、今日はいい天気だな。どご行ぐの？","description":"青森県津軽地方の方言","conversion_model":"tsugaru","custom_input_enabled":true},{"id":"nagoya","name":"名古屋弁","region":"愛知県","sample_text":"こんにちは、今日はいい天気だね。どっか行くの？","description":"名古屋を中心とした愛知県の方言","conversion_model":"nagoya","custom_input_enabled":true},{"id":"hiroshima","name":"広島弁","region":"広島県","sample_text":"こんにちは、今日はええ天気じゃな。どっか行くん？","description":"広島県の方言","conversion_model":"hiroshima","custom_input_enabled":true},{"id":"kagoshima","name":"鹿児島弁","region":"鹿児島県","sample_text":"こんにちは、今日はよか天気じゃ。どっか行くっ？","description":"鹿児島県の方言","conversion_model":"kagoshima","custom_input_enabled":true},{"id":"okinawa","name":"沖縄方言","region":"沖縄県","sample_text":"はいさい、今日はいい天気ですね。どこか行くんですか？","description":"沖縄県の方言","conversion_model":"okinawa","custom_input_enabled":true},{"id":"sendai","name":"仙台弁","region":"宮城県","sample_text":"こんにちは、今日はいい天気だな。どっか行くの？","description":"東北地方の代表的な方言","conversion_model":"sendai","custom_input_enabled":true},{"id":"sapporo","name":"札幌弁","region":"北海道","sample_text":"こんにちは、今日はいい天気だね。どっか行くの？","description":"北海道の方言","conversion_model":"sapporo","custom_input_enabled":true}]},
  {"id":"eng","name_ja":"英語","family":"インド・ヨーロッパ","branch":"ゲルマン","group":"西ゲルマン","subgroup":"アングロ・フリジア","language":"英語","countries":["US","GB","CA","AU","NZ","IE","SG"],"total_speakers":1500000000,"center":{"lat":51.50,"lng":-0.12},"audio":{"text":"Hello","source":"音声合成"}},
  {"id":"cmn","name_ja":"中国語(官話)","family":"シナ・チベット","branch":"シナ","group":"官話","subgroup":"官話","language":"中国語","countries":["CN","TW","SG"],"total_speakers":1100000000,"center":{"lat":39.90,"lng":116.40}},
  {"id":"spa","name_ja":"スペイン語","family":"インド・ヨーロッパ","branch":"ロマンス","group":"西ロマンス","subgroup":"イベロ・ロマンス","language":"スペイン語","countries":["ES","MX","AR","CO","CL","PE","VE","EC","UY","PY","BO","DO","SV","HN","NI","CR","GT","PA","CU"],"total_speakers":500000000,"center":{"lat":40.42,"lng":-3.70}},
  {"id":"fra","name_ja":"フランス語","family":"インド・ヨーロッパ","branch":"ロマンス","group":"西ロマンス","subgroup":"ガロ・ロマンス","language":"フランス語","countries":["FR","BE","CH","CA","LU","MC","SN","CI","CM","NE","ML","BF","GN","TG","BJ","CF","CG","GA","MG","DJ","KM","VU","SC","TD","RW","BI","CD"],"total_speakers":300000000,"center":{"lat":48.85,"lng":2.35},"audio":{"text":"Bonjour","source":"音声合成"}},
  {"id":"hin","name_ja":"ヒンディー語","family":"インド・ヨーロッパ","branch":"インド・イラン","group":"インド語群","subgroup":"インド語群","language":"ヒンディー語","countries":["IN","FJ"],"total_speakers":600000000,"center":{"lat":28.61,"lng":77.20}},
  {"id":"arb","name_ja":"アラビア語","family":"アフロ・アジア","branch":"セム","group":"中央セム","subgroup":"中央セム","language":"アラビア語","countries":["SA","EG","IQ","SY","JO","LB","KW","QA","BH","AE","OM","YE","DZ","MA","TN","LY","SD","SO","MR","PS","DJ","KM"],"total_speakers":420000000,"center":{"lat":24.71,"lng":46.67}},
  {"id":"rus","name_ja":"ロシア語","family":"インド・ヨーロッパ","branch":"スラブ","subgroup":"東スラブ","countries":["RU","BY","KZ","KG"],"total_speakers":260000000,"center":{"lat":55.75,"lng":37.62}},
  {"id":"por","name_ja":"ポルトガル語","family":"インド・ヨーロッパ","branch":"ロマンス","subgroup":"イベロ・ロマンス","countries":["PT","BR","AO","MZ","GW","CV","ST","TL"],"total_speakers":260000000,"center":{"lat":-23.55,"lng":-46.63}},
  {"id":"deu","name_ja":"ドイツ語","family":"インド・ヨーロッパ","branch":"ゲルマン","subgroup":"西ゲルマン","countries":["DE","AT","CH","LI","LU","BE","IT"],"total_speakers":130000000,"center":{"lat":52.52,"lng":13.41}},
  {"id":"kor","name_ja":"韓国語","family":"朝鮮語族","branch":"朝鮮語","subgroup":"朝鮮語","countries":["KR","KP"],"total_speakers":77000000,"center":{"lat":37.57,"lng":126.98}},
  {"id":"ita","name_ja":"イタリア語","family":"インド・ヨーロッパ","branch":"ロマンス","subgroup":"イタロ・ロマンス","countries":["IT","SM","VA","CH"],"total_speakers":65000000,"center":{"lat":41.90,"lng":12.48}},
  {"id":"nld","name_ja":"オランダ語","family":"インド・ヨーロッパ","branch":"ゲルマン","subgroup":"西ゲルマン","countries":["NL","BE","SR","CW","SX","AW"],"total_speakers":24000000,"center":{"lat":52.37,"lng":4.90}},
  {"id":"swe","name_ja":"スウェーデン語","family":"インド・ヨーロッパ","branch":"ゲルマン","subgroup":"北ゲルマン","countries":["SE","FI"],"total_speakers":10000000,"center":{"lat":59.33,"lng":18.07}},
  {"id":"nor","name_ja":"ノルウェー語","family":"インド・ヨーロッパ","branch":"ゲルマン","subgroup":"北ゲルマン","countries":["NO"],"total_speakers":5000000,"center":{"lat":59.91,"lng":10.75}},
  {"id":"dan","name_ja":"デンマーク語","family":"インド・ヨーロッパ","branch":"ゲルマン","subgroup":"北ゲルマン","countries":["DK","GL"],"total_speakers":6000000,"center":{"lat":55.68,"lng":12.57}},
  {"id":"fin","name_ja":"フィンランド語","family":"ウラル","branch":"フィン・ウゴル","subgroup":"バルト・フィン","countries":["FI","SE","RU"],"total_speakers":5000000,"center":{"lat":60.17,"lng":24.94}},
  {"id":"hun","name_ja":"ハンガリー語","family":"ウラル","branch":"フィン・ウゴル","subgroup":"ウゴル","countries":["HU","RO","SK","RS","UA","AT","SI","HR"],"total_speakers":13000000,"center":{"lat":47.50,"lng":19.04}},
  {"id":"pol","name_ja":"ポーランド語","family":"インド・ヨーロッパ","branch":"スラブ","subgroup":"西スラブ","countries":["PL","LT","BY","UA","CZ","SK"],"total_speakers":38000000,"center":{"lat":52.23,"lng":21.01}},
  {"id":"ces","name_ja":"チェコ語","family":"インド・ヨーロッパ","branch":"スラブ","subgroup":"西スラブ","countries":["CZ","SK","AT","HU","PL","DE"],"total_speakers":10000000,"center":{"lat":50.08,"lng":14.42}},
  {"id":"slk","name_ja":"スロバキア語","family":"インド・ヨーロッパ","branch":"スラブ","subgroup":"西スラブ","countries":["SK","CZ","HU","PL","RS","UA"],"total_speakers":5000000,"center":{"lat":48.15,"lng":17.11}},
  {"id":"ukr","name_ja":"ウクライナ語","family":"インド・ヨーロッパ","branch":"スラブ","subgroup":"東スラブ","countries":["UA","RU","PL","MD","RO","BY","KZ","KG"],"total_speakers":37000000,"center":{"lat":50.45,"lng":30.52}},
  {"id":"bul","name_ja":"ブルガリア語","family":"インド・ヨーロッパ","branch":"スラブ","subgroup":"南スラブ","countries":["BG","MK","RS","RO","TR","GR","AL"],"total_speakers":7000000,"center":{"lat":42.70,"lng":23.32}},
  {"id":"hrv","name_ja":"クロアチア語","family":"インド・ヨーロッパ","branch":"スラブ","subgroup":"南スラブ","countries":["HR","BA","RS","ME","SI","HU","AT","IT"],"total_speakers":5500000,"center":{"lat":45.81,"lng":15.98}},
  {"id":"srp","name_ja":"セルビア語","family":"インド・ヨーロッパ","branch":"スラブ","subgroup":"南スラブ","countries":["RS","BA","ME","HR","MK","RO","HU","AL"],"total_speakers":7000000,"center":{"lat":44.82,"lng":20.46}},
  {"id":"slv","name_ja":"スロベニア語","family":"インド・ヨーロッパ","branch":"スラブ","subgroup":"南スラブ","countries":["SI","IT","AT","HU","HR"],"total_speakers":2500000,"center":{"lat":46.05,"lng":14.51}},
  {"id":"mkd","name_ja":"マケドニア語","family":"インド・ヨーロッパ","branch":"スラブ","subgroup":"南スラブ","countries":["MK","AL","BG","GR","RS"],"total_speakers":1500000,"center":{"lat":41.99,"lng":21.43}},
  {"id":"bcs","name_ja":"ボスニア語","family":"インド・ヨーロッパ","branch":"スラブ","subgroup":"南スラブ","countries":["BA","RS","ME","HR","TR","DE","AT","US"],"total_speakers":2500000,"center":{"lat":43.85,"lng":18.36}},
  {"id":"lit","name_ja":"リトアニア語","family":"インド・ヨーロッパ","branch":"バルト","subgroup":"東バルト","countries":["LT","LV","PL","BY","RU"],"total_speakers":3000000,"center":{"lat":54.69,"lng":25.28}},
  {"id":"lav","name_ja":"ラトビア語","family":"インド・ヨーロッパ","branch":"バルト","subgroup":"東バルト","countries":["LV","LT","EE","RU","BY"],"total_speakers":1500000,"center":{"lat":56.95,"lng":24.11}},
  {"id":"est","name_ja":"エストニア語","family":"ウラル","branch":"フィン・ウゴル","subgroup":"バルト・フィン","countries":["EE","LV","RU"],"total_speakers":1000000,"center":{"lat":59.44,"lng":24.75}},
  {"id":"ell","name_ja":"ギリシャ語","family":"インド・ヨーロッパ","branch":"ギリシャ","subgroup":"ギリシャ","countries":["GR","CY","AL","TR","IT","BG","MK"],"total_speakers":13000000,"center":{"lat":37.98,"lng":23.73}},
  {"id":"alb","name_ja":"アルバニア語","family":"インド・ヨーロッパ","branch":"アルバニア","subgroup":"アルバニア","countries":["AL","XK","MK","ME","RS","GR","IT"],"total_speakers":5000000,"center":{"lat":41.33,"lng":19.82}},
  {"id":"arm","name_ja":"アルメニア語","family":"インド・ヨーロッパ","branch":"アルメニア","subgroup":"アルメニア","countries":["AM","GE","RU","IR","TR","SY","LB","US","FR"],"total_speakers":7000000,"center":{"lat":40.18,"lng":44.51}},
  {"id":"kat","name_ja":"グルジア語","family":"カルトヴェリ","branch":"カルトヴェリ","subgroup":"カルトヴェリ","countries":["GE","TR","RU","AZ","IR"],"total_speakers":4000000,"center":{"lat":41.72,"lng":44.78}},
  {"id":"aze","name_ja":"アゼルバイジャン語","family":"テュルク","branch":"テュルク","subgroup":"オグズ","countries":["AZ","IR","TR","RU","GE","IQ"],"total_speakers":23000000,"center":{"lat":40.41,"lng":49.87}},
  {"id":"kaz","name_ja":"カザフ語","family":"テュルク","branch":"テュルク","subgroup":"キプチャク","countries":["KZ","CN","RU","MN","UZ","KG"],"total_speakers":13000000,"center":{"lat":51.17,"lng":71.43}},
  {"id":"uzb","name_ja":"ウズベク語","family":"テュルク","branch":"テュルク","subgroup":"カルルク","countries":["UZ","AF","TJ","KG","KZ","TM","RU"],"total_speakers":33000000,"center":{"lat":41.31,"lng":69.24}},
  {"id":"kir","name_ja":"キルギス語","family":"テュルク","branch":"テュルク","subgroup":"キプチャク","countries":["KG","UZ","TJ","KZ","CN","AF"],"total_speakers":4000000,"center":{"lat":42.87,"lng":74.59}},
  {"id":"tkm","name_ja":"トルクメン語","family":"テュルク","branch":"テュルク","subgroup":"オグズ","countries":["TM","IR","AF","UZ","KZ","TR"],"total_speakers":7000000,"center":{"lat":37.95,"lng":58.38}},
  {"id":"tjk","name_ja":"タジク語","family":"インド・ヨーロッパ","branch":"イラン","subgroup":"西イラン","countries":["TJ","AF","UZ","KZ","KG","CN"],"total_speakers":8000000,"center":{"lat":38.54,"lng":68.78}},
  {"id":"fas","name_ja":"ペルシャ語","family":"インド・ヨーロッパ","branch":"イラン","subgroup":"西イラン","countries":["IR","AF","TJ","UZ","PK","IQ","TR","AZ"],"total_speakers":70000000,"center":{"lat":35.69,"lng":51.42}},
  {"id":"pus","name_ja":"パシュトゥー語","family":"インド・ヨーロッパ","branch":"イラン","subgroup":"東イラン","countries":["AF","PK","IR"],"total_speakers":40000000,"center":{"lat":33.94,"lng":67.71}},
  {"id":"kur","name_ja":"クルド語","family":"インド・ヨーロッパ","branch":"イラン","subgroup":"西イラン","countries":["TR","IR","IQ","SY","AM","AZ","GE"],"total_speakers":20000000,"center":{"lat":37.07,"lng":40.65}},
  {"id":"urd","name_ja":"ウルドゥー語","family":"インド・ヨーロッパ","branch":"インド・イラン","subgroup":"インド語群","countries":["PK","IN","AE","GB","US","CA","SA"],"total_speakers":230000000,"center":{"lat":31.55,"lng":74.36}},
  {"id":"ben","name_ja":"ベンガル語","family":"インド・ヨーロッパ","branch":"インド・イラン","subgroup":"インド語群","countries":["BD","IN","MY","SG","AE","GB","US"],"total_speakers":230000000,"center":{"lat":23.81,"lng":90.41}},
  {"id":"pan","name_ja":"パンジャブ語","family":"インド・ヨーロッパ","branch":"インド・イラン","subgroup":"インド語群","countries":["IN","PK","GB","CA","US","AE","AU"],"total_speakers":120000000,"center":{"lat":31.15,"lng":75.34}},
  {"id":"guj","name_ja":"グジャラート語","family":"インド・ヨーロッパ","branch":"インド・イラン","subgroup":"インド語群","countries":["IN","TZ","KE","UG","ZA","GB","US","CA"],"total_speakers":55000000,"center":{"lat":23.02,"lng":72.57}},
  {"id":"mar","name_ja":"マラーティー語","family":"インド・ヨーロッパ","branch":"インド・イラン","subgroup":"インド語群","countries":["IN","IL","MZ","MA","GB","US","AU"],"total_speakers":83000000,"center":{"lat":19.08,"lng":72.88}},
  {"id":"tel","name_ja":"テルグ語","family":"ドラヴィダ","branch":"南中部","subgroup":"テルグ","countries":["IN","MY","SG","US","GB","AU","AE"],"total_speakers":75000000,"center":{"lat":17.39,"lng":78.49}},
  {"id":"tam","name_ja":"タミル語","family":"ドラヴィダ","branch":"南部","subgroup":"タミル・カンナダ","countries":["IN","LK","MY","SG","MU","ZA","GB","US","CA"],"total_speakers":75000000,"center":{"lat":13.08,"lng":80.27}},
  {"id":"kan","name_ja":"カンナダ語","family":"ドラヴィダ","branch":"南部","subgroup":"タミル・カンナダ","countries":["IN","US","GB","CA","AU","AE","SG"],"total_speakers":44000000,"center":{"lat":12.97,"lng":77.59}},
  {"id":"mal","name_ja":"マラヤーラム語","family":"ドラヴィダ","branch":"南部","subgroup":"タミル・カンナダ","countries":["IN","AE","US","GB","CA","AU","SG","MY"],"total_speakers":35000000,"center":{"lat":10.52,"lng":76.21}},
  {"id":"ori","name_ja":"オリヤー語","family":"インド・ヨーロッパ","branch":"インド・イラン","subgroup":"インド語群","countries":["IN","BD","US","GB","CA","AU"],"total_speakers":35000000,"center":{"lat":20.30,"lng":85.83}},
  {"id":"asm","name_ja":"アッサム語","family":"インド・ヨーロッパ","branch":"インド・イラン","subgroup":"インド語群","countries":["IN","BD","BT","US","GB","CA"],"total_speakers":15000000,"center":{"lat":26.18,"lng":91.75}},
  {"id":"sin","name_ja":"シンハラ語","family":"インド・ヨーロッパ","branch":"インド・イラン","subgroup":"インド語群","countries":["LK","AE","US","GB","CA","AU","SG","MY"],"total_speakers":16000000,"center":{"lat":6.93,"lng":79.85}},
  {"id":"tha","name_ja":"タイ語","family":"タイ・カダイ","branch":"タイ","subgroup":"南西タイ","countries":["TH","LA","MY","US","GB","CA","AU","SG"],"total_speakers":61000000,"center":{"lat":13.76,"lng":100.50}},
  {"id":"lao","name_ja":"ラオス語","family":"タイ・カダイ","branch":"タイ","subgroup":"南西タイ","countries":["LA","TH","US","FR","AU","CA","GB"],"total_speakers":3000000,"center":{"lat":17.97,"lng":102.60}},
  {"id":"khm","name_ja":"クメール語","family":"オーストロアジア","branch":"モン・クメール","subgroup":"クメール","countries":["KH","TH","VN","US","FR","AU","CA","GB"],"total_speakers":16000000,"center":{"lat":11.56,"lng":104.93}},
  {"id":"vie","name_ja":"ベトナム語","family":"オーストロアジア","branch":"モン・クメール","subgroup":"ベト・ムオン","countries":["VN","US","CN","KH","LA","TH","FR","AU","CA","GB"],"total_speakers":76000000,"center":{"lat":21.03,"lng":105.85}},
  {"id":"mya","name_ja":"ビルマ語","family":"シナ・チベット","branch":"チベット・ビルマ","subgroup":"ビルマ","countries":["MM","TH","BD","IN","MY","SG","US","GB","AU","CA"],"total_speakers":33000000,"center":{"lat":16.87,"lng":96.20}},
  {"id":"tib","name_ja":"チベット語","family":"シナ・チベット","branch":"チベット・ビルマ","subgroup":"チベット","countries":["CN","IN","NP","BT","US","CH","FR","GB","CA","AU"],"total_speakers":6000000,"center":{"lat":29.65,"lng":91.10}},
  {"id":"zho","name_ja":"中国語(広東語)","family":"シナ・チベット","branch":"シナ","subgroup":"粤","countries":["CN","HK","MO","SG","MY","US","CA","AU","GB"],"total_speakers":84000000,"center":{"lat":22.32,"lng":114.17}},
  {"id":"yue","name_ja":"中国語(上海語)","family":"シナ・チベット","branch":"シナ","subgroup":"呉","countries":["CN","US","CA","AU","GB","SG","MY"],"total_speakers":80000000,"center":{"lat":31.23,"lng":121.47}},
  {"id":"wuu","name_ja":"中国語(呉語)","family":"シナ・チベット","branch":"シナ","subgroup":"呉","countries":["CN","US","CA","AU","GB","SG","MY"],"total_speakers":80000000,"center":{"lat":31.23,"lng":121.47}},
  {"id":"hak","name_ja":"中国語(客家語)","family":"シナ・チベット","branch":"シナ","subgroup":"客家","countries":["CN","TW","MY","SG","TH","ID","US","CA","AU","GB"],"total_speakers":30000000,"center":{"lat":24.15,"lng":120.67}},
  {"id":"min","name_ja":"中国語(閩南語)","family":"シナ・チベット","branch":"シナ","subgroup":"閩","countries":["CN","TW","MY","SG","PH","ID","US","CA","AU","GB"],"total_speakers":50000000,"center":{"lat":24.15,"lng":120.67}}
]
